bike_point_id,name,latitude,longitude,num_bikes,num_empty_docks,num_docks,installed,locked
BikePoints_1,"River Street , Clerkenwell",51.529163,-0.10997,13,3,19,True,False
BikePoints_2,"Phillimore Gardens, Kensington",51.499606,-0.197574,1,34,37,True,False
BikePoints_3,"Christopher Street, Liverpool Street",51.521283,-0.084605,19,12,32,True,False
BikePoints_4,"St. Chad's Street, King's Cross",51.530059,-0.120973,18,2,23,True,False
BikePoints_5,"Sedding Street, Sloane Square",51.49313,-0.156876,17,8,27,True,False
BikePoints_6,"Broadcasting House, Marylebone",51.518117,-0.144228,0,14,18,True,False
BikePoints_7,"Charlbert Street, St. John's Wood",51.5343,-0.168074,9,6,16,True,False
BikePoints_8,"Maida Vale, Maida Vale",51.529857,-0.183486,12,21,39,True,False
BikePoints_9,"New Globe Walk, Bankside",51.507385,-0.09644,1,18,19,True,False
BikePoints_10,"Park Street, Bankside",51.505974,-0.092754,13,4,18,True,False
BikePoints_11,"Brunswick Square, Bloomsbury",51.523951,-0.122502,13,6,24,True,False
BikePoints_12,"Malet Street, Bloomsbury",51.52168,-0.130431,3,44,49,True,False
BikePoints_13,"Scala Street, Fitzrovia",51.519914,-0.136039,0,20,21,True,False
BikePoints_14,"Argyle Street, Kings Cross",51.529416,-0.123944,27,17,45,True,False
BikePoints_15,"Great Russell Street, Bloomsbury",51.517727,-0.127854,12,10,26,True,False
BikePoints_16,"Cartwright Gardens , Bloomsbury",51.526357,-0.125979,10,8,21,True,False
BikePoints_17,"Hatton Wall, Holborn",51.521661,-0.109006,3,16,26,True,False
BikePoints_18,"Drury Lane, Covent Garden",51.51477,-0.122219,4,22,27,True,False
BikePoints_19,"Taviton Street, Bloomsbury",51.52505,-0.131161,20,7,30,True,False
BikePoints_20,"Drummond Street , Euston",51.527326,-0.136052,7,19,28,True,False
BikePoints_21,"Lansdowne Drive, Hackney Central",51.539834,-0.062806,12,12,26,True,False
BikePoints_22,"Northington Street , Holborn",51.522264,-0.114079,1,11,19,True,False
BikePoints_23,"Red Lion Square, Holborn",51.519435,-0.119123,0,14,16,True,False
BikePoints_24,"British Museum, Bloomsbury",51.51908,-0.124678,25,10,35,True,False
BikePoints_25,"Doric Way , Somers Town",51.528833,-0.13225,24,22,50,True,False
BikePoints_26,"Ampton Street , Clerkenwell",51.52728,-0.118295,13,5,21,True,False
BikePoints_28,"Bolsover Street, Fitzrovia",51.523518,-0.143613,6,11,19,True,False
BikePoints_29,"Hereford Road, Bayswater",51.513735,-0.193487,12,9,22,True,False
BikePoints_30,"Windsor Terrace, Hoxton",51.529154,-0.093421,17,5,24,True,False
BikePoints_31,"Fanshaw Street, Hoxton",51.529537,-0.083353,32,0,36,True,False
BikePoints_33,"Central House, Aldgate",51.515231,-0.07015,0,23,24,True,False
BikePoints_34,"Pancras Road, King's Cross",51.534123,-0.129386,8,4,16,True,False
BikePoints_36,"De Vere Gardens, Kensington",51.501737,-0.18498,2,24,28,True,False
BikePoints_37,"Penywern Road, Earl's Court",51.491593,-0.192369,5,9,17,True,False
BikePoints_38,"Abingdon Villas, Kensington",51.497387,-0.197245,7,10,17,True,False
BikePoints_39,"Shoreditch High Street, Shoreditch",51.526377,-0.07813,34,5,41,True,False
BikePoints_40,"Commercial Street, Shoreditch",51.52127,-0.075578,10,5,16,True,False
BikePoints_41,"Pindar Street, Liverpool Street",51.520955,-0.083493,1,22,24,True,False
BikePoints_42,"Wenlock Road , Hoxton",51.530991,-0.093903,26,0,28,True,False
BikePoints_43,"Crawford Street, Marylebone",51.52026,-0.157183,4,11,18,True,False
BikePoints_44,"Bruton Street, Mayfair",51.510736,-0.144165,0,19,21,True,False
BikePoints_45,"Boston Place, Marylebone",51.522511,-0.162298,21,0,26,True,False
BikePoints_46,"Nesham Street, Wapping",51.507131,-0.06691,14,0,16,True,False
BikePoints_47,"Warwick Avenue Station, Maida Vale",51.523344,-0.183846,17,0,19,True,False
BikePoints_48,"Godliman Street, St. Paul's",51.512484,-0.099141,4,16,25,True,False
BikePoints_49,"Curzon Street, Mayfair",51.507069,-0.145904,2,10,16,True,False
BikePoints_50,"East Road, Hoxton",51.528673,-0.087459,17,7,27,True,False
BikePoints_51,"Finsbury Library , Finsbury",51.526717,-0.104298,19,8,29,True,False
BikePoints_52,"Roscoe Street, St. Luke's",51.522954,-0.094934,11,2,18,True,False
BikePoints_53,"Grafton Street, Mayfair",51.509992,-0.143495,0,14,18,True,False
BikePoints_54,"Golden Lane, Barbican",51.521747,-0.094475,17,5,27,True,False
BikePoints_55,"Finsbury Circus, Liverpool Street",51.517075,-0.086685,12,20,33,True,False
BikePoints_56,"Paddington Street, Marylebone",51.520583,-0.154701,2,14,16,True,False
BikePoints_57,"Guilford Street , Bloomsbury",51.523346,-0.120202,8,21,32,True,False
BikePoints_58,"New Inn Yard, Shoreditch",51.524526,-0.079248,15,3,20,True,False
BikePoints_60,"Lisson Grove, St. John's Wood",51.526448,-0.17219,3,12,18,True,False
BikePoints_61,"Great Dover Street, The Borough",51.497382,-0.089446,13,19,33,True,False
BikePoints_62,"Cotton Garden Estate, Kennington",51.490757,-0.106323,8,14,24,True,False
BikePoints_63,"Murray Grove , Hoxton",51.53089,-0.089782,22,1,27,True,False
BikePoints_64,"William IV Street, Strand",51.509462,-0.124749,12,10,26,True,False
BikePoints_65,"Gower Place , Euston",51.525227,-0.135188,13,2,17,True,False
BikePoints_66,"Holborn Circus, Holborn",51.51795,-0.108657,10,28,40,True,False
BikePoints_67,"Hatton Garden, Holborn",51.518825,-0.108028,17,9,28,True,False
BikePoints_68,"Theobald's Road , Holborn",51.520596,-0.116688,0,20,26,True,False
BikePoints_69,"Euston Road, Euston",51.526236,-0.134407,13,8,24,True,False
BikePoints_70,"Calshot Street , King's Cross",51.53136,-0.117069,11,2,24,True,False
BikePoints_71,"Newgate Street , St. Paul's",51.515768,-0.099894,2,32,35,True,False
BikePoints_72,"Farringdon Lane, Clerkenwell",51.52352,-0.10834,10,5,16,True,False
BikePoints_73,"Old Street Station, St. Luke's",51.525615,-0.088532,22,5,34,True,False
BikePoints_74,"Vauxhall Cross, Vauxhall",51.485917,-0.124469,14,3,17,True,False
BikePoints_75,"Torrens Street, Angel",51.532199,-0.10548,4,10,19,True,False
BikePoints_76,"Longford Street, The Regent's Park",51.525595,-0.144083,10,8,21,True,False
BikePoints_77,"Russell Square Station, Bloomsbury",51.523418,-0.124121,6,14,26,True,False
BikePoints_78,"Sadlers Sports Centre, Finsbury",51.524868,-0.099489,13,0,17,True,False
BikePoints_79,"Arundel Street, Temple",51.511726,-0.113855,1,11,18,True,False
BikePoints_80,"Webber Street , Southwark",51.500693,-0.102091,33,10,45,True,False
BikePoints_81,"Great Titchfield Street, Fitzrovia",51.520253,-0.141327,4,14,19,True,False
BikePoints_83,"Panton Street, West End",51.509639,-0.13151,9,10,21,True,False
BikePoints_84,"Breams Buildings, Holborn",51.515937,-0.111778,0,24,25,True,False
BikePoints_85,"Tanner Street, Bermondsey",51.500647,-0.0786,3,37,41,True,False
BikePoints_86,"Sancroft Street, Vauxhall",51.489479,-0.115156,15,7,24,True,False
BikePoints_88,"Percy Street, Bloomsbury",51.51863,-0.132676,7,18,29,True,False
BikePoints_89,"Tavistock Place, Bloomsbury",51.52625,-0.123509,1,13,19,True,False
BikePoints_90,"Harrington Square 1, Camden Town",51.533019,-0.139174,19,8,27,True,False
BikePoints_91,"Walnut Tree Walk, Vauxhall",51.493686,-0.111014,11,9,20,True,False
BikePoints_92,"Borough Road, Elephant & Castle",51.498898,-0.10044,39,1,41,True,False
BikePoints_93,"Cloudesley Road, Angel",51.534408,-0.109025,35,0,37,True,False
BikePoints_94,"Bricklayers Arms, Borough",51.495061,-0.085814,14,14,28,True,False
BikePoints_95,"Aldersgate Street, Barbican",51.520841,-0.09734,0,11,15,True,False
BikePoints_96,"Falkirk Street, Hoxton",51.53095,-0.078505,12,11,26,True,False
BikePoints_97,"Gloucester Road (North), Kensington",51.497924,-0.183834,0,16,18,True,False
BikePoints_98,"Hampstead Road, Euston",51.525542,-0.138231,26,20,54,True,False
BikePoints_101,"Queen Street 1, Bank",51.511553,-0.09294,3,19,22,True,False
BikePoints_102,"Jewry Street, Aldgate",51.513406,-0.076793,1,15,17,True,False
BikePoints_103,"Vicarage Gate, Kensington",51.504723,-0.192538,5,13,18,True,False
BikePoints_104,"Crosswall, Tower",51.511594,-0.077121,30,3,34,True,False
BikePoints_105,"Westbourne Grove, Bayswater",51.515529,-0.19024,9,15,26,True,False
BikePoints_106,"Woodstock Street, Mayfair",51.514105,-0.147301,5,15,21,True,False
BikePoints_107,"Finsbury Leisure Centre, St. Luke's",51.526008,-0.096317,16,0,20,True,False
BikePoints_109,"Soho Square , Soho",51.515631,-0.132328,29,22,57,True,False
BikePoints_110,"Wellington Road, St. John's Wood",51.533043,-0.172528,7,9,17,True,False
BikePoints_111,"Park Lane , Hyde Park",51.510017,-0.157275,11,11,28,True,False
BikePoints_112,"Stonecutter Street, Holborn",51.515809,-0.10527,19,1,21,True,False
BikePoints_113,"Gloucester Road (Central), South Kensington",51.496462,-0.183289,0,18,19,True,False
BikePoints_114,"Park Road (Baker Street), The Regent's Park",51.524517,-0.158963,15,3,22,True,False
BikePoints_115,"Braham Street, Aldgate",51.514233,-0.073537,0,27,34,True,False
BikePoints_116,"Little Argyll Street, West End",51.514499,-0.141423,1,19,21,True,False
BikePoints_117,"Lollard Street, Vauxhall",51.49288,-0.114934,21,3,25,True,False
BikePoints_118,"Rochester Row, Westminster",51.495827,-0.135478,4,8,13,True,False
BikePoints_119,"Bath Street, St. Luke's",51.525893,-0.090847,2,7,18,True,False
BikePoints_120,"The Guildhall, Guildhall",51.515735,-0.09308,4,13,17,True,False
BikePoints_121,"Baker Street, Marylebone",51.518913,-0.156166,2,17,22,True,False
BikePoints_122,"Norton Folgate, Liverpool Street",51.521113,-0.078869,1,21,23,True,False
BikePoints_123,"St. John Street, Finsbury",51.52836,-0.104724,14,4,18,True,False
BikePoints_124,"Eaton Square, Belgravia",51.496544,-0.150905,13,5,18,True,False
BikePoints_125,"Borough High Street, The Borough",51.500694,-0.094524,3,17,21,True,False
BikePoints_126,"Museum of London, Barbican",51.517821,-0.096496,14,30,52,True,False
BikePoints_127,"Wood Street, Guildhall",51.517008,-0.093885,1,13,17,True,False
BikePoints_128,"Emperor's Gate, South Kensington",51.495362,-0.185296,4,13,22,True,False
BikePoints_129,"Golden Square, Soho",51.511897,-0.137043,1,15,18,True,False
BikePoints_130,"Tower Gardens , Tower",51.509506,-0.075459,7,14,24,True,False
BikePoints_131,"Eversholt Street , Camden Town",51.533005,-0.136792,13,1,16,True,False
BikePoints_132,"Bethnal Green Road, Shoreditch",51.523648,-0.074754,6,30,38,True,False
BikePoints_133,"Derry Street, Kensington",51.501364,-0.191462,1,13,18,True,False
BikePoints_134,"Wapping High Street, Wapping",51.504904,-0.06797,7,12,20,True,False
BikePoints_135,"Clerkenwell Green, Clerkenwell",51.52326,-0.104708,2,12,21,True,False
BikePoints_136,"Queen Victoria Street, St. Paul's",51.511961,-0.097441,1,26,32,True,False
BikePoints_138,"Green Street, Mayfair",51.512276,-0.157436,6,10,19,True,False
BikePoints_139,"Lambeth Road, Vauxhall",51.494881,-0.117974,4,13,18,True,False
BikePoints_140,"Finsbury Square , Moorgate",51.520962,-0.085634,4,25,33,True,False
BikePoints_141,"Chapel Place, Marylebone",51.515308,-0.147203,8,16,29,True,False
BikePoints_142,"West Cromwell Road, Earl's Court",51.493724,-0.198286,10,14,24,True,False
BikePoints_144,"Kennington Cross, Kennington",51.48894,-0.111435,33,12,47,True,False
BikePoints_145,"Ilchester Place, Kensington",51.500743,-0.202759,4,19,24,True,False
BikePoints_146,"Vauxhall Bridge , Pimlico",51.488365,-0.129361,2,31,35,True,False
BikePoints_147,"Portugal Street, Holborn",51.514943,-0.116146,2,13,16,True,False
BikePoints_148,"Tachbrook Street, Victoria",51.492111,-0.138364,12,1,16,True,False
BikePoints_149,"Kennington Road Post Office, Oval",51.484788,-0.110683,14,0,18,True,False
BikePoints_150,"Holy Trinity Brompton, Knightsbridge",51.497056,-0.168917,14,13,28,True,False
BikePoints_151,"Chepstow Villas, Notting Hill",51.512136,-0.201554,8,16,26,True,False
BikePoints_152,"Hampton Street, Walworth",51.49217,-0.101536,17,1,21,True,False
BikePoints_153,"Bayswater Road, Hyde Park",51.511933,-0.174411,14,10,27,True,False
BikePoints_154,"Waterloo Station 3, Waterloo",51.503791,-0.112824,33,0,35,True,False
BikePoints_155,"Lexham Gardens, Kensington",51.495866,-0.191933,8,10,19,True,False
BikePoints_156,"New Kent Road, The Borough",51.494436,-0.092921,14,19,33,True,False
BikePoints_157,"Wright's Lane, Kensington",51.500397,-0.193068,1,27,37,True,False
BikePoints_158,"Trebovir Road, Earl's Court",51.490853,-0.19617,11,3,18,True,False
BikePoints_160,"Waterloo Place, St. James's",51.506633,-0.131773,15,3,20,True,False
BikePoints_161,"Guildhouse Street, Victoria",51.492345,-0.141334,15,0,16,True,False
BikePoints_162,"Southampton Place, Holborn",51.517606,-0.121328,5,13,20,True,False
BikePoints_163,"Sloane Avenue, Knightsbridge",51.493184,-0.167894,3,21,27,True,False
BikePoints_164,"Cleveland Gardens, Bayswater",51.515607,-0.183118,13,1,16,True,False
BikePoints_165,"Orsett Terrace, Bayswater",51.517932,-0.183716,9,3,15,True,False
BikePoints_166,"Seville Street, Knightsbridge",51.501855,-0.159237,17,7,27,True,False
BikePoints_167,"Eccleston Place, Victoria",51.49395,-0.147624,5,11,19,True,False
BikePoints_168,"Argyll Road, Kensington",51.500401,-0.195455,1,15,19,True,False
BikePoints_169,"Porchester Place, Paddington",51.514746,-0.165164,9,5,18,True,False
BikePoints_170,"Hardwick Street, Clerkenwell",51.527842,-0.108068,22,6,30,True,False
BikePoints_171,"Collingham Gardens, Earl's Court",51.491615,-0.186753,11,2,14,True,False
BikePoints_172,"Sumner Place, South Kensington",51.491211,-0.173715,7,12,19,True,False
BikePoints_173,"Waterloo Road, South Bank",51.50486,-0.113001,14,0,15,True,False
BikePoints_175,"Worship Street, Shoreditch",51.521668,-0.079608,1,44,51,True,False
BikePoints_176,"Gloucester Terrace, Bayswater",51.517919,-0.188098,3,16,23,True,False
BikePoints_177,"Ashley Place, Victoria",51.49616,-0.140947,4,19,25,True,False
BikePoints_178,"Warwick Square, Pimlico",51.489856,-0.141923,16,0,19,True,False
BikePoints_180,"North Audley Street, Mayfair",51.512911,-0.153645,0,17,17,True,False
BikePoints_181,"Belgrave Square, Belgravia",51.499412,-0.152317,11,10,21,True,False
BikePoints_182,"Bell Street , Marylebone",51.522029,-0.165842,8,8,18,True,False
BikePoints_183,"Riverlight North, Nine Elms",51.482362,-0.136123,10,11,24,True,False
BikePoints_184,"Portland Place, Marylebone",51.520715,-0.145211,0,33,34,True,False
BikePoints_185,"Alderney Street, Pimlico",51.488057,-0.140741,13,0,14,True,False
BikePoints_186,"South Wharf Road, Paddington",51.517335,-0.17581,10,1,16,True,False
BikePoints_187,"Queen's Gate (South), South Kensington",51.492479,-0.178433,10,13,25,True,False
BikePoints_188,"Nutford Place, Marylebone",51.516517,-0.164393,8,9,18,True,False
BikePoints_189,"Claremont Square, Angel",51.531666,-0.109914,12,1,18,True,False
BikePoints_190,"Rampayne Street, Pimlico",51.489975,-0.132845,13,7,21,True,False
BikePoints_191,"Hyde Park Corner, Hyde Park",51.503117,-0.15352,25,9,36,True,False
BikePoints_192,"Wardour Street, Soho",51.512515,-0.133201,0,14,16,True,False
BikePoints_193,"Bankside Mix, Bankside",51.505817,-0.100186,10,48,60,True,False
BikePoints_194,"Hop Exchange, The Borough",51.504627,-0.091773,35,20,56,True,False
BikePoints_195,"Milroy Walk, South Bank",51.507244,-0.106237,14,12,30,True,False
BikePoints_196,"Union Street, The Borough",51.503688,-0.098497,2,13,17,True,False
BikePoints_197,"Stamford Street, South Bank",51.505569,-0.111606,25,0,27,True,False
BikePoints_199,"Great Tower Street, Monument",51.510484,-0.082989,4,20,24,True,False
BikePoints_200,"LMU Commercial Road, Whitechapel",51.514924,-0.066078,7,4,14,True,False
BikePoints_201,"Dorset Square, Marylebone",51.522596,-0.161113,14,0,16,True,False
BikePoints_202,"Leman Street, Aldgate",51.512363,-0.069542,13,20,37,True,False
BikePoints_203,"West Smithfield Rotunda, Farringdon",51.518218,-0.100791,5,6,15,True,False
BikePoints_204,"Margery Street, Clerkenwell",51.526599,-0.112432,16,1,19,True,False
BikePoints_206,"New Road 1 , Whitechapel",51.518154,-0.062697,26,5,36,True,False
BikePoints_207,"Grosvenor Crescent, Belgravia",51.501352,-0.153194,15,2,18,True,False
BikePoints_208,"Mallory Street, Marylebone",51.525051,-0.166304,3,13,20,True,False
BikePoints_209,"Denyer Street, Knightsbridge",51.493583,-0.165101,5,23,30,True,False
BikePoints_210,"Hinde Street, Marylebone",51.516814,-0.151926,5,12,21,True,False
BikePoints_211,"Cadogan Place, Knightsbridge",51.494645,-0.158105,9,20,34,True,False
BikePoints_212,"Campden Hill Road, Notting Hill",51.506584,-0.199004,1,16,17,True,False
BikePoints_213,"Wellington Arch, Hyde Park",51.50274,-0.149569,26,8,36,True,False
BikePoints_214,"Endsleigh Gardens, Euston",51.526838,-0.130504,29,2,32,True,False
BikePoints_215,"Moorfields, Moorgate",51.519069,-0.088285,2,48,54,True,False
BikePoints_216,"Old Brompton Road, South Kensington",51.490945,-0.18119,14,15,30,True,False
BikePoints_217,"Wormwood Street, Liverpool Street",51.516154,-0.082422,0,14,16,True,False
BikePoints_218,"St. Luke's Church, Chelsea",51.489716,-0.170194,7,12,20,True,False
BikePoints_219,"Bramham Gardens, Earl's Court",51.490163,-0.190393,20,5,29,True,False
BikePoints_220,"Chelsea Green, Chelsea",51.490664,-0.166485,9,4,15,True,False
BikePoints_221,"Horseferry Road, Westminster",51.494816,-0.130458,2,13,16,True,False
BikePoints_222,"Knightsbridge, Hyde Park",51.502757,-0.155349,39,1,43,True,False
BikePoints_223,"Rodney Road , Walworth",51.491484,-0.09022,8,16,24,True,False
BikePoints_224,"Queensway, Kensington Gardens",51.51031,-0.187402,9,0,17,True,False
BikePoints_225,"Notting Hill Gate Station, Notting Hill",51.509353,-0.196422,2,28,30,True,False
BikePoints_226,"Charles II Street, West End",51.508446,-0.131961,10,9,24,True,False
BikePoints_227,"Great Percy Street, Clerkenwell",51.528915,-0.11548,17,1,23,True,False
BikePoints_228,"St. James's Square, St. James's",51.507424,-0.134621,13,24,40,True,False
BikePoints_229,"Whitehall Place, Strand",51.506543,-0.123179,19,16,46,True,False
BikePoints_230,"Poured Lines, Bankside",51.506692,-0.103137,6,23,31,True,False
BikePoints_231,"Queen's Gate (Central), South Kensington",51.493967,-0.178732,2,29,31,True,False
BikePoints_232,"Carey Street, Holborn",51.51501,-0.112753,0,13,16,True,False
BikePoints_233,"Pall Mall East, West End",51.50777,-0.130699,16,5,22,True,False
BikePoints_234,"Liverpool Road (N1 Centre), Angel",51.534504,-0.106992,19,1,24,True,False
BikePoints_235,"Kennington Road, Vauxhall",51.495718,-0.110889,5,26,36,True,False
BikePoints_236,"Fashion Street, Whitechapel",51.51838,-0.073438,5,21,30,True,False
BikePoints_237,"Dock Street, Wapping",51.509786,-0.068161,7,21,30,True,False
BikePoints_238,"Frampton Street, Paddington",51.523353,-0.175116,29,0,32,True,False
BikePoints_239,"Warren Street Station, Euston",51.524438,-0.138019,4,17,26,True,False
BikePoints_240,"Colombo Street, Southwark",51.505459,-0.105692,12,1,14,True,False
BikePoints_242,"Beaumont Street, Marylebone",51.522008,-0.151359,5,12,23,True,False
BikePoints_243,"Gloucester Street, Pimlico",51.490962,-0.139625,23,0,25,True,False
BikePoints_244,"Bucknall Street, Covent Garden",51.51615,-0.128417,0,15,18,True,False
BikePoints_245,"Grosvenor Road, Pimlico",51.485357,-0.142207,9,19,29,True,False
BikePoints_246,"Berry Street, Clerkenwell",51.522853,-0.099994,24,15,41,True,False
BikePoints_247,"St. John's Wood Church, The Regent's Park",51.530529,-0.167515,22,26,50,True,False
BikePoints_248,"Triangle Car Park, Hyde Park",51.506451,-0.170279,3,22,27,True,False
BikePoints_249,"Harper Road, The Borough",51.498597,-0.096191,21,19,42,True,False
BikePoints_250,"Royal Avenue 1, Chelsea",51.489932,-0.162727,0,9,10,True,False
BikePoints_251,"Brushfield Street, Liverpool Street",51.518908,-0.079249,19,6,34,True,False
BikePoints_253,"Shoreditch Park, Hoxton",51.534042,-0.086379,22,4,30,True,False
BikePoints_255,"Clifton Road, Maida Vale",51.525575,-0.179592,13,7,22,True,False
BikePoints_256,"Houghton Street, Strand",51.51362,-0.116764,0,12,15,True,False
BikePoints_257,"Westminster University, Marylebone",51.522481,-0.154907,3,13,16,True,False
BikePoints_258,"Kensington Gore, Knightsbridge",51.501432,-0.178656,0,23,23,True,False
BikePoints_259,"Bourne Street, Belgravia",51.490959,-0.153233,15,1,16,True,False
BikePoints_260,"Broadwick Street, Soho",51.513684,-0.13558,1,14,18,True,False
BikePoints_261,"Princes Square, Bayswater",51.513489,-0.191351,16,0,16,True,False
BikePoints_262,"LSBU (Borough Road), Elephant & Castle",51.498744,-0.103132,19,12,35,True,False
BikePoints_263,"St. Mary Axe, Aldgate",51.514225,-0.08066,0,18,21,True,False
BikePoints_264,"Tysoe Street, Clerkenwell",51.526443,-0.109256,12,3,20,True,False
BikePoints_265,"Southwick Street, Paddington",51.515953,-0.169249,13,0,17,True,False
BikePoints_266,"Queen's Gate (North), Kensington",51.501026,-0.180246,0,41,41,True,False
BikePoints_267,"Regency Street, Westminster",51.49206,-0.132224,5,16,22,True,False
BikePoints_268,"Belgrave Road, Victoria",51.493204,-0.144132,20,7,29,True,False
BikePoints_269,"Empire Square, The Borough",51.500823,-0.08974,31,14,46,True,False
BikePoints_271,"London Zoo,  The Regent's Park",51.535836,-0.156285,12,16,32,True,False
BikePoints_272,"Baylis Road, Waterloo",51.501444,-0.110699,13,5,22,True,False
BikePoints_273,"Belvedere Road 1, South Bank",51.506133,-0.114686,35,1,38,True,False
BikePoints_274,"Warwick Road, Olympia",51.496712,-0.205284,9,25,36,True,False
BikePoints_275,"Barbican Centre, Barbican",51.520044,-0.092176,1,14,19,True,False
BikePoints_276,"Lower Thames Street, Monument",51.509301,-0.084985,0,23,24,True,False
BikePoints_277,"Kensington Church Street, Kensington",51.503157,-0.191496,2,14,17,True,False
BikePoints_278,"Tooley Street, Bermondsey",51.503493,-0.07962,8,16,27,True,False
BikePoints_279,"North Wharf Road, Paddington",51.518623,-0.176603,2,18,23,True,False
BikePoints_280,"Royal Avenue 2, Chelsea",51.490083,-0.162418,1,9,10,True,False
BikePoints_281,"Smith Square, Westminster",51.495805,-0.127575,3,14,18,True,False
BikePoints_282,"Royal London Hospital, Whitechapel",51.518675,-0.06111,36,5,42,True,False
BikePoints_283,"Kingsway, Covent Garden",51.514409,-0.118478,1,13,16,True,False
BikePoints_284,"Lambeth North Station, Waterloo",51.49914,-0.112031,11,7,20,True,False
BikePoints_286,"St. John's Wood Road, St. John's Wood",51.527294,-0.174653,8,26,35,True,False
BikePoints_287,"Bedford Way, Bloomsbury",51.523673,-0.128377,16,6,23,True,False
BikePoints_288,"Elizabeth Bridge, Victoria",51.492369,-0.147478,13,17,34,True,False
BikePoints_289,"South Audley Street, Mayfair",51.50923,-0.151289,7,7,15,True,False
BikePoints_290,"St Mary's Hospital, Paddington",51.518268,-0.171103,4,12,20,True,False
BikePoints_291,"Claverton Street, Pimlico",51.484839,-0.138089,23,6,32,True,False
BikePoints_292,"Montpelier Street, Knightsbridge",51.498884,-0.165471,5,9,16,True,False
BikePoints_293,"Kensington Olympia Station, Olympia",51.498157,-0.209494,12,11,25,True,False
BikePoints_294,"St. George's Square, Pimlico",51.488226,-0.135635,12,1,16,True,False
BikePoints_295,"Swan Street, The Borough",51.500296,-0.092762,6,20,27,True,False
BikePoints_296,"Knaresborough Place, Earl's Court",51.493631,-0.190603,17,0,18,True,False
BikePoints_297,"Geraldine Street, Elephant & Castle",51.496127,-0.106,12,4,17,True,False
BikePoints_298,"Curlew Street, Shad Thames",51.502279,-0.074189,14,5,21,True,False
BikePoints_299,"Vincent Square, Westminster",51.493985,-0.136928,14,4,19,True,False
BikePoints_300,"Serpentine Car Park, Hyde Park",51.505014,-0.17306,3,8,18,True,False
BikePoints_301,"Marylebone Lane, Marylebone",51.514759,-0.148105,2,16,24,True,False
BikePoints_302,"Putney Pier, Wandsworth",51.466907,-0.216573,17,9,28,True,False
BikePoints_303,"Albert Gate, Hyde Park",51.502953,-0.158456,15,11,34,True,False
BikePoints_306,"Rathbone Street, Fitzrovia",51.518162,-0.135025,4,10,16,True,False
BikePoints_307,"Black Lion Gate, Kensington Gardens",51.509908,-0.187842,16,6,24,True,False
BikePoints_308,"Long Lane , Bermondsey",51.499075,-0.085666,5,14,20,True,False
BikePoints_309,"Embankment (Savoy), Strand",51.509631,-0.119047,25,14,41,True,False
BikePoints_310,"Black Prince Road, Vauxhall",51.490867,-0.116911,12,7,19,True,False
BikePoints_311,"Foley Street, Fitzrovia",51.519181,-0.140485,2,20,24,True,False
BikePoints_312,"Grove End Road, St. John's Wood",51.530889,-0.17677,9,7,20,True,False
BikePoints_313,"Wells Street, Fitzrovia",51.517344,-0.138072,1,34,38,True,False
BikePoints_314,"Tyers Gate, Bermondsey",51.500889,-0.083159,10,23,36,True,False
BikePoints_315,"The Tennis Courts, The Regent's Park",51.525367,-0.153463,5,11,16,True,False
BikePoints_316,"Warwick Row, Westminster",51.497998,-0.14296,3,11,21,True,False
BikePoints_317,"Dickens Square, Borough",51.496791,-0.093913,14,17,32,True,False
BikePoints_318,"Sackville Street, Mayfair",51.510048,-0.138846,0,18,18,True,False
BikePoints_319,"Baldwin Street, St. Luke's",51.527025,-0.088542,17,1,21,True,False
BikePoints_320,"Queen Mother Sports Centre, Victoria",51.493573,-0.139956,18,4,26,True,False
BikePoints_321,"Bermondsey Street, Bermondsey",51.497855,-0.081608,18,5,24,True,False
BikePoints_322,"Palissy Street, Shoreditch",51.526293,-0.073955,24,2,26,True,False
BikePoints_323,"Clifton Street, Shoreditch",51.523196,-0.083067,6,16,24,True,False
BikePoints_324,"Ontario Street, Elephant & Castle",51.49652,-0.101384,13,1,15,True,False
BikePoints_325,"St. Martin's Street, West End",51.509087,-0.129697,13,4,18,True,False
BikePoints_326,"Graham Street, Angel",51.532661,-0.099981,19,3,26,True,False
BikePoints_327,"Westbourne Green, Westbourne",51.522168,-0.192814,9,9,21,True,False
BikePoints_328,"New North Road 2, Hoxton",51.53114,-0.086016,20,0,22,True,False
BikePoints_329,"Prince Albert Road, The Regent's Park",51.535892,-0.160854,10,11,24,True,False
BikePoints_330,"Eastbourne Mews, Paddington",51.516417,-0.179135,9,19,34,True,False
BikePoints_331,"Bunhill Row, Moorgate",51.520858,-0.089887,5,23,30,True,False
BikePoints_332,"Nevern Place, Earl's Court",51.493343,-0.194757,5,15,20,True,False
BikePoints_333,"Palace Gardens Terrace, Notting Hill",51.508605,-0.193764,10,23,37,True,False
BikePoints_336,"Concert Hall Approach, South Bank",51.504841,-0.115153,23,3,30,True,False
BikePoints_337,"Pembridge Villas, Notting Hill",51.511084,-0.197524,11,5,16,True,False
BikePoints_338,"Wellington Street , Strand",51.511756,-0.119643,0,21,24,True,False
BikePoints_340,"Bank of England Museum, Bank",51.514441,-0.087587,0,11,16,True,False
BikePoints_341,"Craven Street, Strand",51.508103,-0.126021,10,6,23,True,False
BikePoints_343,"London Zoo Car Park, The Regent's Park",51.536922,-0.150181,26,9,36,True,False
BikePoints_344,"Goswell Road (City Uni), Finsbury",51.528246,-0.101026,10,4,17,True,False
BikePoints_345,"Flood Street, Chelsea",51.488023,-0.166878,16,15,33,True,False
BikePoints_348,"Grosvenor Square, Mayfair",51.51217,-0.150481,3,6,17,True,False
BikePoints_349,"St. George Street, Mayfair",51.51196,-0.142783,0,18,18,True,False
BikePoints_350,"Queen's Gate, Kensington Gardens",51.501715,-0.179854,8,9,21,True,False
BikePoints_351,"Macclesfield Rd, St Lukes",51.529423,-0.097122,21,0,28,True,False
BikePoints_352,"Vauxhall Street, Vauxhall",51.486965,-0.116625,17,0,19,True,False
BikePoints_353,"Greycoat Street , Westminster",51.494591,-0.134234,7,9,17,True,False
BikePoints_354,"Northumberland Avenue, Strand",51.506767,-0.123702,18,14,37,True,False
BikePoints_355,"Clapham Common Station, Clapham Common",51.461388,-0.139221,14,4,21,True,False
BikePoints_356,"South Kensington Station, South Kensington",51.494412,-0.173881,0,14,15,True,False
BikePoints_357,"Howland Street, Fitzrovia",51.520994,-0.139016,2,24,30,True,False
BikePoints_358,"High Holborn , Covent Garden",51.516398,-0.124257,3,13,20,True,False
BikePoints_359,"Butler Place, Westminster",51.497829,-0.13544,2,15,18,True,False
BikePoints_360,"Howick Place, Westminster",51.496753,-0.138733,3,18,27,True,False
BikePoints_361,"Waterloo Station 2, Waterloo",51.503919,-0.113426,42,6,48,True,False
BikePoints_362,"Royal College Street, Camden Town",51.536264,-0.133952,48,7,57,True,False
BikePoints_363,"Lord's, St. John's Wood",51.529121,-0.171185,1,21,24,True,False
BikePoints_364,"Store Street, Bloomsbury",51.519572,-0.13214,3,25,32,True,False
BikePoints_365,"City Road, Angel",51.530344,-0.100168,21,23,47,True,False
BikePoints_366,"Millennium Hotel, Mayfair",51.510919,-0.151126,20,4,27,True,False
BikePoints_367,"Harrowby Street, Marylebone",51.517372,-0.164207,10,5,16,True,False
BikePoints_368,"Harriet Street, Knightsbridge",51.500241,-0.15934,12,9,25,True,False
BikePoints_370,"Paddington Green, Paddington",51.520205,-0.174593,6,14,20,True,False
BikePoints_371,"King Edward Walk, Waterloo",51.49775,-0.10988,10,10,22,True,False
BikePoints_372,"Sardinia Street, Holborn",51.515208,-0.117863,1,22,24,True,False
BikePoints_373,"Prince Consort Road, Knightsbridge",51.499806,-0.176415,0,17,18,True,False
BikePoints_374,"Waterloo Station 1, Waterloo",51.504027,-0.113864,30,1,36,True,False
BikePoints_375,"Kensington Town Hall, Kensington",51.501945,-0.194392,5,12,18,True,False
BikePoints_376,"Millbank Tower, Pimlico",51.491884,-0.125674,8,12,24,True,False
BikePoints_377,"Waterloo Bridge, South Bank",51.505354,-0.113656,13,1,15,True,False
BikePoints_378,"Natural History Museum, South Kensington",51.495592,-0.179077,0,42,42,True,False
BikePoints_379,"Turquoise Island, Notting Hill",51.514311,-0.200838,8,9,21,True,False
BikePoints_380,"Stanhope Gate, Mayfair",51.506864,-0.150666,18,3,21,True,False
BikePoints_381,"Charlotte Street, Fitzrovia",51.51953,-0.135777,6,6,14,True,False
BikePoints_382,"Farm Street, Mayfair",51.509351,-0.147449,0,12,15,True,False
BikePoints_383,"Frith Street, Soho",51.513103,-0.131213,4,12,18,True,False
BikePoints_384,"Marloes Road, Kensington",51.496481,-0.192404,7,6,15,True,False
BikePoints_386,"Moor Street, Soho",51.513527,-0.13011,9,6,16,True,False
BikePoints_387,"Fire Brigade Pier, Vauxhall",51.493699,-0.121394,18,11,30,True,False
BikePoints_388,"Southampton Street, Strand",51.510701,-0.121723,1,12,14,True,False
BikePoints_389,"Upper Grosvenor Street, Mayfair",51.51013,-0.155757,15,1,18,True,False
BikePoints_390,"Buxton Street 1, Shoreditch",51.521776,-0.068856,10,30,41,True,False
BikePoints_391,"Clifford Street, Mayfair",51.510662,-0.142345,0,15,17,True,False
BikePoints_392,"Imperial College, Knightsbridge",51.499428,-0.179702,0,29,33,True,False
BikePoints_393,"Snow Hill, Farringdon",51.517334,-0.103604,0,9,15,True,False
BikePoints_394,"Aberdeen Place, St. John's Wood",51.524826,-0.176268,4,13,18,True,False
BikePoints_395,"Cadogan Gardens, Chelsea",51.492462,-0.159919,9,5,15,True,False
BikePoints_396,"Shouldham Street, Marylebone",51.51809,-0.163609,3,12,16,True,False
BikePoints_397,"Devonshire Terrace, Bayswater",51.51348,-0.17977,15,0,16,True,False
BikePoints_398,"Holland Park, Kensington",51.502319,-0.200742,5,22,30,True,False
BikePoints_399,"Brick Lane Market, Shoreditch",51.522617,-0.071653,3,18,24,True,False
BikePoints_400,"George Street, Marylebone",51.517703,-0.154106,9,17,27,True,False
BikePoints_401,"Columbia Road, Shoreditch",51.528187,-0.075375,19,5,24,True,False
BikePoints_402,"Penfold Street, Marylebone",51.522892,-0.171681,9,5,15,True,False
BikePoints_403,"George Place Mews, Marylebone",51.516892,-0.158249,4,9,16,True,False
BikePoints_404,"Palace Gate, Kensington Gardens",51.502042,-0.1844,11,0,13,True,False
BikePoints_408,"Sun Street, Liverpool Street",51.520009,-0.083935,1,22,24,True,False
BikePoints_409,"Strata, Elephant & Castle",51.493146,-0.099828,33,7,41,True,False
BikePoints_410,"Edgware Road Station, Marylebone",51.519968,-0.169774,0,32,34,True,False
BikePoints_411,"Rotherhithe Roundabout, Rotherhithe",51.499169,-0.055846,14,5,19,True,False
BikePoints_412,"Cleaver Street, Kennington",51.488105,-0.110121,13,2,17,True,False
BikePoints_419,"Chelsea Bridge, Pimlico",51.485821,-0.149004,4,9,15,True,False
BikePoints_421,"Southwark Station 2, Southwark",51.504044,-0.104778,16,27,45,True,False
BikePoints_423,"Eaton Square (South), Belgravia",51.494561,-0.153933,7,24,31,True,False
BikePoints_424,"Ebury Bridge, Pimlico",51.490491,-0.149186,12,15,29,True,False
BikePoints_425,"Camley Street, Camden Town",51.53792,-0.130529,5,13,18,True,False
BikePoints_426,"Vincent Street, Pimlico",51.493072,-0.129925,16,1,17,True,False
BikePoints_427,"Cheapside, Bank",51.51397,-0.09294,12,25,43,True,False
BikePoints_428,"Exhibition Road, Knightsbridge",51.499917,-0.174554,0,17,20,True,False
BikePoints_430,"South Parade, Chelsea",51.48902,-0.17524,11,4,18,True,False
BikePoints_431,"Crinan Street, King's Cross",51.534474,-0.122203,6,13,20,True,False
BikePoints_432,"Exhibition Road Museums 1, South Kensington",51.496468,-0.173796,0,12,13,True,False
BikePoints_433,"Wren Street, Holborn",51.524564,-0.116279,12,18,33,True,False
BikePoints_435,"Kennington Station, Kennington",51.488852,-0.105593,12,8,23,True,False
BikePoints_436,"Red Lion Street, Holborn",51.51824,-0.11655,2,30,36,True,False
BikePoints_437,"Vauxhall Walk, Vauxhall",51.488124,-0.120903,9,18,27,True,False
BikePoints_439,"Killick Street, King's Cross",51.5338,-0.118677,8,12,22,True,False
BikePoints_440,"Kennington Oval, Oval",51.483145,-0.113134,8,23,33,True,False
BikePoints_441,"Sail Street, Vauxhall",51.495656,-0.114605,4,18,24,True,False
BikePoints_442,"Walmer Road, Avondale",51.510101,-0.211358,15,9,24,True,False
BikePoints_443,"Philpot Street, Whitechapel",51.515256,-0.058641,25,3,30,True,False
BikePoints_444,"Bethnal Green Garden, Bethnal Green",51.52568,-0.055312,9,11,24,True,False
BikePoints_445,"Cheshire Street, Bethnal Green",51.52388,-0.065076,21,7,28,True,False
BikePoints_446,"York Hall, Bethnal Green",51.528936,-0.055894,18,8,27,True,False
BikePoints_447,"Jubilee Crescent, Cubitt Town",51.493381,-0.007542,14,35,54,True,False
BikePoints_448,"Fisherman's Walk West, Canary Wharf",51.50623,-0.02296,27,3,36,True,False
BikePoints_449,"Shadwell Station, Shadwell",51.511088,-0.057159,22,8,35,True,False
BikePoints_450,"Jubilee Street, Stepney",51.515975,-0.053177,17,6,28,True,False
BikePoints_451,"Hermitage Court, Wapping",51.504719,-0.063531,5,9,16,True,False
BikePoints_452,"St. Katharine's Way, Tower",51.505697,-0.070542,3,19,24,True,False
BikePoints_453,"Garnet Street, Shadwell",51.508447,-0.055167,11,12,24,True,False
BikePoints_454,"Napier Avenue, Millwall",51.487679,-0.021582,6,14,20,True,False
BikePoints_455,"East Ferry Road, Cubitt Town",51.49447,-0.014409,12,5,17,True,False
BikePoints_456,"Albert Street, Camden Town",51.537706,-0.144801,14,10,26,True,False
BikePoints_457,"Castlehaven Road, Camden Town",51.542138,-0.145393,18,7,29,True,False
BikePoints_458,"Wapping Lane, Wapping",51.504749,-0.057544,17,8,28,True,False
BikePoints_459,"Gunmakers Lane, Old Ford",51.535179,-0.03338,7,8,17,True,False
BikePoints_460,"Burdett Road, Mile End",51.516196,-0.029138,22,6,33,True,False
BikePoints_461,"Aston Street, Stepney",51.516,-0.038775,9,13,26,True,False
BikePoints_462,"Bonny Street, Camden Town",51.541603,-0.138853,25,17,45,True,False
BikePoints_463,"Thurtle Road, Haggerston",51.534776,-0.071881,9,12,22,True,False
BikePoints_464,"St. Mary & St. Michael Church, Stepney",51.51417,-0.052099,19,5,25,True,False
BikePoints_465,"Pitfield Street North,Hoxton",51.53558,-0.08249,24,2,28,True,False
BikePoints_466,"Whiston Road, Haggerston",51.534464,-0.076341,6,13,21,True,False
BikePoints_467,"Southern Grove, Bow",51.523538,-0.030556,11,5,17,True,False
BikePoints_468,"Cantrell Road, Bow",51.521564,-0.022694,11,12,24,True,False
BikePoints_469,"Lindfield Street, Poplar",51.513757,-0.020467,30,12,44,True,False
BikePoints_470,"Mostyn Grove, Bow",51.530535,-0.025492,14,29,46,True,False
BikePoints_471,"Hewison Street, Old Ford",51.533283,-0.028155,8,7,19,True,False
BikePoints_472,"Malmesbury Road, Bow",51.529452,-0.027616,3,18,21,True,False
BikePoints_473,"Millharbour, Millwall",51.496137,-0.019355,8,10,19,True,False
BikePoints_474,"Gascoyne Road, Victoria Park",51.541515,-0.038557,16,1,20,True,False
BikePoints_475,"Lightermans Road, Millwall",51.499041,-0.020157,13,15,31,True,False
BikePoints_476,"Stebondale Street, Cubitt Town",51.489096,-0.009205,23,4,29,True,False
BikePoints_477,"Spindrift Avenue, Millwall",51.49109,-0.018716,22,11,36,True,False
BikePoints_478,"Stepney Green Station, Stepney",51.521889,-0.04667,16,4,21,True,False
BikePoints_479,"Pott Street, Bethnal Green",51.527152,-0.058005,14,3,20,True,False
BikePoints_480,"Flamborough Street, Limehouse",51.512871,-0.038986,10,11,25,True,False
BikePoints_481,"Saunders Ness Road, Cubitt Town",51.487129,-0.009001,14,12,35,True,False
BikePoints_482,"Exhibition Road Museums 2, South Kensington",51.495947,-0.173689,0,13,14,True,False
BikePoints_483,"Albert Gardens, Stepney",51.51328,-0.047784,8,25,33,True,False
BikePoints_484,"Bromley High Street, Bow",51.528828,-0.013258,11,8,24,True,False
BikePoints_485,"Old Ford Road, Bethnal Green",51.531127,-0.048017,11,12,24,True,False
BikePoints_486,"Granby Street, Shoreditch",51.525645,-0.069543,26,7,37,True,False
BikePoints_487,"Canton Street, Poplar",51.511811,-0.025626,6,16,23,True,False
BikePoints_488,"Reardon Street, Wapping",51.506946,-0.058681,18,1,22,True,False
BikePoints_489,"Christian Street, Whitechapel",51.513074,-0.064094,14,14,34,True,False
BikePoints_490,"Pennington Street, Wapping",51.508622,-0.065006,16,27,45,True,False
BikePoints_491,"Queen Mary's, Mile End",51.522507,-0.041378,28,9,45,True,False
BikePoints_494,"South Quay East, Canary Wharf",51.50196,-0.016251,26,10,36,True,False
BikePoints_495,"Bow Church Station, Bow",51.528169,-0.018703,17,20,39,True,False
BikePoints_496,"Devons Road, Bow",51.52512,-0.015578,23,14,39,True,False
BikePoints_497,"Merchant Street, Bow",51.526578,-0.027581,7,19,27,True,False
BikePoints_498,"Bow Road Station, Bow",51.527058,-0.025296,0,42,42,True,False
BikePoints_499,"Furze Green, Bow",51.519265,-0.021345,31,1,36,True,False
BikePoints_500,"Ansell House, Stepney",51.520019,-0.05438,15,22,41,True,False
BikePoints_501,"Cephas Street, Bethnal Green",51.522561,-0.054883,12,12,24,True,False
BikePoints_502,"Bonner Gate, Victoria Park",51.53341,-0.049591,0,18,21,True,False
BikePoints_503,"Cleveland Way, Stepney",51.520893,-0.051394,29,4,36,True,False
BikePoints_504,"St. John's Park, Cubitt Town",51.496454,-0.009506,12,17,30,True,False
BikePoints_505,"Ackroyd Drive, Bow",51.520398,-0.026768,18,7,29,True,False
BikePoints_506,"Bell Lane, Liverpool Street",51.517475,-0.075855,8,14,23,True,False
BikePoints_507,"Clarkson Street, Bethnal Green",51.528692,-0.059091,13,14,31,True,False
BikePoints_508,"Fournier Street, Whitechapel",51.519362,-0.074431,6,8,18,True,False
BikePoints_509,"Fore Street Avenue, Guildhall",51.517842,-0.090075,0,19,19,True,False
BikePoints_510,"Westferry DLR, Limehouse",51.509303,-0.025996,27,11,41,True,False
BikePoints_511,"Sutton Street, Shadwell",51.511066,-0.053558,4,23,33,True,False
BikePoints_513,"Watney Market, Stepney",51.514222,-0.055656,37,13,51,True,False
BikePoints_514,"Portman Square, Marylebone",51.516204,-0.155525,0,12,17,True,False
BikePoints_515,"Russell Gardens, Olympia",51.500088,-0.211316,3,20,24,True,False
BikePoints_516,"Chrisp Street Market, Poplar",51.5112,-0.014438,12,4,18,True,False
BikePoints_517,"Ford Road, Old Ford",51.532513,-0.033085,6,9,18,True,False
BikePoints_518,"Antill Road, Mile End",51.528224,-0.037471,12,16,30,True,False
BikePoints_519,"Teviot Street, Poplar",51.518811,-0.011662,7,25,33,True,False
BikePoints_520,"Bancroft Road, Bethnal Green",51.526041,-0.047218,11,8,21,True,False
BikePoints_521,"Driffield Road, Old Ford",51.534137,-0.037366,13,5,19,True,False
BikePoints_522,"Clinton Road, Mile End",51.525941,-0.036017,30,4,36,True,False
BikePoints_523,"Langdon Park, Poplar",51.51549,-0.013475,7,15,24,True,False
BikePoints_524,"Lancaster Gate , Bayswater",51.511654,-0.179668,20,16,38,True,False
BikePoints_525,"Blythe Road, Olympia",51.496927,-0.2135,9,14,24,True,False
BikePoints_526,"Lancaster Drive, Blackwall",51.503143,-0.008428,19,8,27,True,False
BikePoints_527,"Hansard Mews, Holland Park",51.503802,-0.215808,7,11,20,True,False
BikePoints_528,"Clarges Street, Mayfair",51.507326,-0.145827,1,12,16,True,False
BikePoints_529,"Manresa Road, Chelsea",51.486892,-0.170983,2,14,18,True,False
BikePoints_530,"Newby Place, Poplar",51.508896,-0.012413,17,0,18,True,False
BikePoints_531,"Twig Folly Bridge, Mile End",51.530326,-0.042744,5,16,21,True,False
BikePoints_532,"Jubilee Plaza, Canary Wharf",51.5034,-0.020242,36,20,63,True,False
BikePoints_533,"Wellington Row, Bethnal Green",51.528222,-0.069743,19,11,33,True,False
BikePoints_534,"Goldsmith's Row, Haggerston",51.531864,-0.066035,6,19,27,True,False
BikePoints_535,"Gloucester Avenue, Camden Town",51.537349,-0.147154,12,12,24,True,False
BikePoints_536,"Queensbridge Road, Haggerston",51.53385,-0.06992,10,25,35,True,False
BikePoints_537,"Old Montague Street, Whitechapel",51.51793,-0.067937,8,7,18,True,False
BikePoints_538,"Naval Row, Blackwall",51.508981,-0.00699,16,4,21,True,False
BikePoints_539,"Hoxton Station, Hoxton",51.531091,-0.075901,21,0,22,True,False
BikePoints_541,"Green Park Station, Mayfair",51.506613,-0.142844,0,24,28,True,False
BikePoints_542,"Salmon Lane, Limehouse",51.514115,-0.033828,11,20,33,True,False
BikePoints_543,"Lansdowne Walk, Ladbroke Grove",51.509591,-0.204666,5,15,21,True,False
BikePoints_544,"Percival Street, Finsbury",51.526153,-0.102208,18,2,22,True,False
BikePoints_545,"Arlington Road, Camden Town",51.539957,-0.145246,15,7,24,True,False
BikePoints_546,"New Fetter Lane, Holborn",51.517428,-0.107987,2,16,21,True,False
BikePoints_547,"East India DLR, Blackwall",51.509474,-0.002275,16,34,51,True,False
BikePoints_548,"Westminster Bridge Road, Elephant & Castle",51.498386,-0.107913,12,14,26,True,False
BikePoints_549,"Gaywood  Street, Elephant & Castle",51.49605,-0.104193,37,6,45,True,False
BikePoints_550,"Harford Street, Mile End",51.521564,-0.039264,0,23,23,True,False
BikePoints_551,"Import Dock, Canary Wharf",51.505772,-0.01646,6,26,39,True,False
BikePoints_552,"Watney Street, Shadwell",51.511542,-0.056667,3,22,27,True,False
BikePoints_553,"Regent's Row , Haggerston",51.535678,-0.062546,14,7,24,True,False
BikePoints_554,"Aberfeldy Street, Poplar",51.513548,-0.005659,10,6,16,True,False
BikePoints_556,"Heron Quays DLR, Canary Wharf",51.502661,-0.021596,18,6,27,True,False
BikePoints_557,"King Edward Street, St Pauls",51.51601,-0.0985,5,6,20,True,False
BikePoints_558,"Page Street, Westminster",51.493978,-0.127554,4,19,24,True,False
BikePoints_559,"Abbotsbury Road, Holland Park",51.501391,-0.205991,15,9,24,True,False
BikePoints_560,"Ladbroke Grove Central, Ladbroke Grove",51.511624,-0.205921,3,18,21,True,False
BikePoints_561,"Rectory Square, Stepney",51.518369,-0.043371,8,13,22,True,False
BikePoints_562,"Bury Place, Holborn",51.51742,-0.123189,7,12,21,True,False
BikePoints_563,"Preston's Road, Cubitt Town",51.499286,-0.009152,13,8,26,True,False
BikePoints_564,"Somerset House, Strand",51.509943,-0.117619,38,2,41,True,False
BikePoints_565,"Selby Street, Whitechapel",51.521905,-0.063386,8,8,17,True,False
BikePoints_568,"Bishop's Bridge Road West, Bayswater",51.51616,-0.18697,7,7,18,True,False
BikePoints_569,"Pitfield Street Central, Hoxton",51.53213,-0.08299,22,5,30,True,False
BikePoints_570,"Upper Bank Street, Canary Wharf",51.503083,-0.017676,0,31,36,True,False
BikePoints_571,"Westfield Southern Terrace ,Shepherd's Bush",51.506256,-0.218337,20,5,29,True,False
BikePoints_572,"Greenland Road, Camden Town",51.539099,-0.141728,32,1,36,True,False
BikePoints_573,"Limerston Street, West Chelsea",51.485587,-0.18119,9,4,18,True,False
BikePoints_574,"Eagle Wharf Road, Hoxton",51.53356,-0.09315,43,1,45,True,False
BikePoints_576,"Alpha Grove, Millwall",51.497304,-0.022793,19,2,23,True,False
BikePoints_577,"Globe Town Market, Bethnal Green",51.528869,-0.047548,4,16,20,True,False
BikePoints_578,"Hollybush Gardens, Bethnal Green",51.527607,-0.057133,29,3,32,True,False
BikePoints_579,"Queen Street 2, Bank",51.511246,-0.093051,15,19,36,True,False
BikePoints_580,"Doddington Grove, Kennington",51.486929,-0.102996,19,17,36,True,False
BikePoints_581,"New Cavendish Street, Marylebone",51.519167,-0.147983,1,13,18,True,False
BikePoints_583,"Abingdon Green, Westminster",51.49764,-0.125972,1,17,20,True,False
BikePoints_584,"Ilchester Gardens, Bayswater",51.51244,-0.19096,13,5,21,True,False
BikePoints_586,"Mudchute DLR, Cubitt Town",51.490645,-0.014582,2,28,31,True,False
BikePoints_587,"Monument Street, Monument",51.50964,-0.08497,2,18,22,True,False
BikePoints_588,"Hoxton Street, Hoxton",51.52959,-0.0801,11,8,27,True,False
BikePoints_589,"Drayton Gardens, West Chelsea",51.487196,-0.179369,7,9,18,True,False
BikePoints_590,"Greenberry Street, St.John's Wood",51.53256,-0.16862,5,19,26,True,False
BikePoints_591,"Westfield Library Corner, Shepherd's Bush",51.506093,-0.224223,24,0,27,True,False
BikePoints_592,"Bishop's Bridge Road East, Bayswater",51.5171,-0.18377,3,17,20,True,False
BikePoints_593,"Northdown Street, King's Cross",51.531066,-0.11934,12,6,21,True,False
BikePoints_594,"Kingsway Southbound, Strand",51.513875,-0.117774,0,26,33,True,False
BikePoints_595,"Hammersmith Road, Hammersmith",51.493267,-0.21985,6,12,22,True,False
BikePoints_596,"Parson's Green , Parson's Green",51.472817,-0.199783,5,14,21,True,False
BikePoints_597,"Fulham Park Road, Fulham",51.473471,-0.20782,25,1,27,True,False
BikePoints_598,"Southerton Road, Hammersmith",51.494499,-0.228188,8,25,38,True,False
BikePoints_599,"Manbre Road, Hammersmith",51.485743,-0.223616,0,26,28,True,False
BikePoints_600,"South Lambeth Road, Vauxhall",51.481747,-0.124642,19,0,21,True,False
BikePoints_602,"Union Grove, Wandsworth Road",51.472993,-0.133972,22,22,45,True,False
BikePoints_603,"Caldwell Street, Stockwell",51.477839,-0.116493,33,7,44,True,False
BikePoints_604,"St Martins Close, Camden Town",51.538792,-0.138535,12,4,18,True,False
BikePoints_605,"Seymour Place, Marylebone",51.520331,-0.163667,15,13,29,True,False
BikePoints_606,"Addison Road, Holland Park",51.504199,-0.210941,7,18,26,True,False
BikePoints_607,"Putney Bridge Station, Fulham",51.468814,-0.210279,18,3,21,True,False
BikePoints_608,"Colet Gardens, Hammersmith",51.491093,-0.216493,2,27,30,True,False
BikePoints_609,"Sugden Road, Clapham",51.465123,-0.157788,10,6,19,True,False
BikePoints_610,"Danvers Street, West Chelsea",51.482567,-0.172078,7,13,21,True,False
BikePoints_611,"Princedale Road , Holland Park",51.506465,-0.208486,3,17,20,True,False
BikePoints_612,"Wandsworth Rd, Isley Court, Wandsworth Road",51.469259,-0.141812,15,12,30,True,False
BikePoints_613,"Woodstock Grove, Shepherd's Bush",51.504038,-0.2174,8,14,24,True,False
BikePoints_615,"Finlay Street, Fulham",51.476885,-0.215895,19,4,24,True,False
BikePoints_616,"Aintree Street, Fulham",51.481021,-0.209973,10,14,24,True,False
BikePoints_617,"Elysium Place, Fulham",51.471079,-0.207842,12,8,21,True,False
BikePoints_618,"Eel Brook Common, Walham Green",51.476259,-0.193254,3,19,24,True,False
BikePoints_619,"Irene Road, Parsons Green",51.473763,-0.19701,2,19,23,True,False
BikePoints_620,"Surrey Lane, Battersea",51.47518,-0.16716,18,8,26,True,False
BikePoints_621,"Wandsworth Town Station, Wandsworth",51.460864,-0.187427,17,14,33,True,False
BikePoints_622,"Lansdowne Road, Ladbroke Grove",51.507481,-0.205535,4,23,29,True,False
BikePoints_623,"Nantes Close, Wandsworth",51.46193,-0.180791,14,8,22,True,False
BikePoints_624,"Courland Grove, Wandsworth Road",51.472918,-0.132102,19,20,40,True,False
BikePoints_625,"Queen's Circus, Battersea Park",51.477619,-0.149551,12,13,28,True,False
BikePoints_626,"Normand Park, West Kensington",51.484386,-0.204815,23,0,24,True,False
BikePoints_627,"Holden Street, Battersea",51.46879,-0.15823,12,7,20,True,False
BikePoints_628,"William Morris Way, Sands End",51.468819,-0.184318,7,18,26,True,False
BikePoints_629,"Morie Street, Wandsworth",51.459953,-0.190184,14,13,28,True,False
BikePoints_630,"Clarence Walk, Stockwell",51.470732,-0.126994,15,11,28,True,False
BikePoints_631,"Battersea Park Road, Nine Elms",51.479501,-0.14177,4,20,27,True,False
BikePoints_632,"Sheepcote Lane, Battersea",51.470538,-0.163041,10,15,28,True,False
BikePoints_633,"Vereker Road, West Kensington",51.489591,-0.209378,15,16,32,True,False
BikePoints_634,"Brook Green South, Brook Green",51.494347,-0.215804,4,26,33,True,False
BikePoints_635,"Greyhound Road, Hammersmith",51.486062,-0.214428,6,30,37,True,False
BikePoints_636,"South Park, Sands End",51.467064,-0.193502,5,22,28,True,False
BikePoints_638,"Falcon Road, Clapham Junction",51.466633,-0.169821,22,2,28,True,False
BikePoints_640,"Silverthorne Road, Battersea",51.472865,-0.148059,9,18,28,True,False
BikePoints_641,"Archbishop's Park, Waterloo",51.498241,-0.117495,2,19,23,True,False
BikePoints_642,"Fawcett Close, Battersea",51.469161,-0.174485,2,27,30,True,False
BikePoints_643,"All Saints' Road, Portobello",51.519042,-0.204764,2,18,22,True,False
BikePoints_644,"Rainville Road, Hammersmith",51.483732,-0.223852,9,26,36,True,False
BikePoints_645,"Great Suffolk Street, The Borough",51.501732,-0.100292,2,18,21,True,False
BikePoints_646,"Buckingham Gate, Westminster",51.498865,-0.137424,2,12,16,True,False
BikePoints_647,"Richmond Way, Shepherd's Bush",51.500353,-0.217515,10,16,27,True,False
BikePoints_648,"Peterborough Road, Sands End",51.46904,-0.196274,8,11,20,True,False
BikePoints_649,"World's End Place, West Chelsea",51.481805,-0.180274,9,12,22,True,False
BikePoints_650,"St. Mark's Road, North Kensington",51.51687,-0.213872,18,2,21,True,False
BikePoints_651,"Thorndike Close, West Chelsea",51.480898,-0.183853,10,15,25,True,False
BikePoints_652,"Evesham Street, Avondale",51.511486,-0.21819,3,12,20,True,False
BikePoints_653,"Simpson Street, Clapham Junction",51.470847,-0.170703,14,5,25,True,False
BikePoints_654,"Ashmole Estate, Oval",51.482678,-0.117661,16,17,34,True,False
BikePoints_655,"Crabtree Lane, Fulham",51.482944,-0.219346,8,19,27,True,False
BikePoints_656,"Broomhouse Lane, Parsons Green",51.468418,-0.199135,29,0,29,True,False
BikePoints_657,"Blythe Road West, Shepherd's Bush",51.49968,-0.221791,2,18,21,True,False
BikePoints_658,"Ethelburga Estate, Battersea Park",51.477292,-0.164786,6,19,30,True,False
BikePoints_659,"Blackfriars Station, St. Paul's",51.511934,-0.103078,6,21,35,True,False
BikePoints_660,"West Kensington Station, West Kensington",51.49087,-0.206029,9,12,22,True,False
BikePoints_661,"All Saints Church, Portobello",51.51632,-0.202608,12,21,37,True,False
BikePoints_662,"Phene Street, Chelsea",51.484984,-0.167919,4,20,24,True,False
BikePoints_663,"Clarendon Road, Avondale",51.51323,-0.211593,3,21,24,True,False
BikePoints_664,"Austin Road, Battersea Park",51.474376,-0.155442,13,8,24,True,False
BikePoints_665,"Smugglers Way, Wandsworth",51.461083,-0.191722,4,21,27,True,False
BikePoints_666,"Harris Academy, Bermondsey",51.492668,-0.07235,3,13,18,True,False
BikePoints_667,"Shepherd's Bush Road North, Shepherd's Bush",51.501594,-0.222293,3,28,34,True,False
BikePoints_668,"Ravenscourt Park Station, Hammersmith",51.494223,-0.236769,11,12,26,True,False
BikePoints_669,"Teversham Lane, Stockwell",51.476149,-0.123258,22,17,39,True,False
BikePoints_670,"Ashley Crescent, Battersea",51.467185,-0.152248,12,14,28,True,False
BikePoints_671,"Parsons Green Station, Parsons Green",51.475089,-0.201968,5,51,56,True,False
BikePoints_672,"Chicheley Street, South Bank",51.502698,-0.116747,7,17,24,True,False
BikePoints_673,"Hibbert Street, Battersea",51.46517,-0.180389,16,17,36,True,False
BikePoints_674,"Carnegie Street, King's Cross",51.535467,-0.116191,27,10,40,True,False
BikePoints_675,"Usk Road, Clapham Junction",51.463489,-0.182126,11,16,30,True,False
BikePoints_676,"Hartington Road, Stockwell",51.47787,-0.126874,8,26,35,True,False
BikePoints_677,"Heath Road, Battersea",51.468669,-0.146544,24,2,27,True,False
BikePoints_678,"Esmond Street, Putney",51.462312,-0.211468,5,25,30,True,False
BikePoints_679,"Orbel Street, Battersea",51.474535,-0.17021,15,8,26,True,False
BikePoints_680,"Westbridge Road, Battersea",51.477684,-0.170329,10,14,28,True,False
BikePoints_681,"Bishop's Avenue, Fulham",51.473036,-0.214749,30,13,46,True,False
BikePoints_682,"Crisp Road, Hammersmith",51.488108,-0.226606,19,27,46,True,False
BikePoints_683,"Dorothy Road, Clapham Junction",51.465064,-0.16375,2,25,28,True,False
BikePoints_684,"Neville Gill Close, Wandsworth",51.454752,-0.195197,7,24,32,True,False
BikePoints_685,"Osiers Road, Wandsworth",51.46067,-0.198735,23,7,30,True,False
BikePoints_686,"Beryl Road, Hammersmith",51.488144,-0.222456,5,19,26,True,False
BikePoints_687,"Clements Road, Bermondsey",51.4954,-0.061698,15,8,23,True,False
BikePoints_688,"Northfields, Wandsworth",51.460951,-0.200667,18,9,28,True,False
BikePoints_689,"Spanish Road, Clapham Junction",51.459225,-0.180884,12,18,30,True,False
BikePoints_690,"Stanley Grove, Battersea",51.470475,-0.15213,10,13,24,True,False
BikePoints_691,"Erin Close, Walham Green",51.479463,-0.195777,21,1,24,True,False
BikePoints_692,"Cadogan Close, Victoria Park",51.542118,-0.028941,12,6,22,True,False
BikePoints_693,"Felsham Road, Putney",51.464786,-0.215618,15,0,18,True,False
BikePoints_694,"Putney Rail Station, Putney",51.460717,-0.216526,3,17,20,True,False
BikePoints_695,"Islington Green, Angel",51.536384,-0.102757,13,5,21,True,False
BikePoints_696,"Charing Cross Hospital, Hammersmith",51.487285,-0.217995,8,12,21,True,False
BikePoints_697,"Charlotte Terrace, Angel",51.536392,-0.112721,21,2,25,True,False
BikePoints_698,"Shoreditch Court, Haggerston",51.539083,-0.070329,10,23,35,True,False
BikePoints_699,"Belford House, Haggerston",51.536654,-0.07023,3,36,39,True,False
BikePoints_700,"Battersea Church Road, Battersea",51.476964,-0.174347,6,15,25,True,False
BikePoints_701,"Vicarage Crescent, Battersea",51.472876,-0.176267,18,11,30,True,False
BikePoints_702,"Durant Street, Bethnal Green",51.528681,-0.06555,7,17,24,True,False
BikePoints_703,"St. Bride Street, Holborn",51.514665,-0.104583,1,23,24,True,False
BikePoints_704,"Mexfield Road, East Putney",51.45682,-0.202802,6,11,18,True,False
BikePoints_705,"Upper Richmond Road, Putney",51.459715,-0.212145,1,23,25,True,False
BikePoints_706,"Snowsfields, London Bridge",51.502153,-0.083632,0,30,31,True,False
BikePoints_707,"Barons Court Station, West Kensington",51.490217,-0.215087,11,18,32,True,False
BikePoints_708,"Disraeli Road, Putney",51.46161,-0.216145,1,31,33,True,False
BikePoints_709,"Montserrat Road , Putney",51.463211,-0.21555,8,13,23,True,False
BikePoints_710,"Albert Bridge Road, Battersea Park",51.474392,-0.163347,13,5,20,True,False
BikePoints_711,"Everington Street, Fulham",51.483356,-0.216305,17,14,31,True,False
BikePoints_712,"Mile End Stadium, Mile End",51.518541,-0.034903,4,16,22,True,False
BikePoints_713,"Hawley Crescent, Camden Town",51.541007,-0.14326,11,9,22,True,False
BikePoints_714,"Stewart's Road, Wandsworth Road",51.473116,-0.137235,14,14,28,True,False
BikePoints_715,"Aylward Street, Stepney",51.51563,-0.049067,14,7,22,True,False
BikePoints_716,"Stainsby Road , Poplar",51.515427,-0.023565,20,1,24,True,False
BikePoints_717,"Dunston Road , Haggerston",51.536585,-0.075885,11,31,43,True,False
BikePoints_718,"Ada Street, Hackney Central",51.535716,-0.060291,16,29,45,True,False
BikePoints_719,"Victoria Park Road, Hackney Central",51.536424,-0.054162,6,25,34,True,False
BikePoints_720,"Star Road, West Kensington",51.487244,-0.205279,8,12,23,True,False
BikePoints_721,"Wendon Street, Old Ford",51.536039,-0.026262,8,8,18,True,False
BikePoints_722,"Finnis Street, Bethnal Green",51.524583,-0.058631,9,9,19,True,False
BikePoints_723,"Stephendale Road, Sands End",51.46822,-0.190346,13,31,48,True,False
BikePoints_724,"Alma Road, Wandsworth",51.457991,-0.184806,21,3,28,True,False
BikePoints_725,"Walworth Square, Walworth",51.491327,-0.096518,22,1,24,True,False
BikePoints_726,"Alfreda Street, Battersea Park",51.47505,-0.150908,11,10,22,True,False
BikePoints_727,"Chesilton Road, Fulham",51.475698,-0.205876,10,11,23,True,False
BikePoints_728,"Putney Bridge Road, East Putney",51.461999,-0.20624,12,17,29,True,False
BikePoints_729,"St. Peter's Terrace, Fulham",51.478939,-0.208485,13,10,24,True,False
BikePoints_730,"Bridge Avenue, Hammersmith",51.492084,-0.229116,13,2,18,True,False
BikePoints_731,"Michael Road, Walham Green",51.477276,-0.18921,8,27,37,True,False
BikePoints_732,"Duke Street Hill, London Bridge",51.506304,-0.087262,8,13,21,True,False
BikePoints_733,"Park Lane, Mayfair",51.505426,-0.150817,12,5,18,True,False
BikePoints_734,"Plough Terrace, Clapham Junction",51.462305,-0.175407,6,23,31,True,False
BikePoints_735,"Grant Road East, Clapham Junction",51.464894,-0.173029,16,10,28,True,False
BikePoints_736,"Queensdale Road, Shepherd's Bush",51.50659,-0.216104,4,23,28,True,False
BikePoints_737,"Fulham Broadway, Walham Green",51.479932,-0.194116,18,7,26,True,False
BikePoints_738,"Imperial Road, Sands End",51.475142,-0.187278,16,21,37,True,False
BikePoints_739,"Hortensia Road, West Brompton",51.481765,-0.185273,6,18,28,True,False
BikePoints_740,"Sirdar Road, Avondale",51.510928,-0.214594,12,8,20,True,False
BikePoints_741,"Freston Road, Avondale",51.512981,-0.219486,16,7,23,True,False
BikePoints_742,"Blenheim Crescent, Ladbroke Grove",51.515108,-0.208565,10,10,22,True,False
BikePoints_743,"Oxford Road, Putney",51.460792,-0.212607,8,9,20,True,False
BikePoints_744,"Ingrave Street, Clapham Junction",51.467454,-0.172293,18,11,30,True,False
BikePoints_745,"Upcerne Road, West Chelsea",51.478169,-0.182435,3,24,29,True,False
BikePoints_746,"Lots Road, West Chelsea",51.479573,-0.179038,1,18,24,True,False
BikePoints_747,"Ormonde Gate, Chelsea",51.487964,-0.161765,11,9,24,True,False
BikePoints_748,"Hertford Road, De Beauvoir Town",51.537277,-0.079201,19,6,25,True,False
BikePoints_749,"Haggerston Road, Haggerston",51.539328,-0.074284,30,5,37,True,False
BikePoints_750,"Culvert Road, Battersea",51.471095,-0.15785,13,12,27,True,False
BikePoints_751,"Newton Street, Covent Garden",51.516128,-0.120909,4,16,24,True,False
BikePoints_752,"London Street, Paddington",51.515117,-0.173712,12,0,19,True,False
BikePoints_753,"Clapham South, Clapham South",51.452997,-0.148651,13,13,28,True,False
BikePoints_754,"Grenfell Road, Avondale",51.5129,-0.214762,7,17,24,True,False
BikePoints_755,"The Vale, Chelsea",51.485121,-0.174971,0,22,24,True,False
BikePoints_756,"Prince of Wales Drive, Battersea Park",51.475153,-0.159169,16,4,21,True,False
BikePoints_757,"Harcourt Terrace, West Brompton",51.487958,-0.187404,22,0,24,True,False
BikePoints_758,"Westbourne Park Road, Portobello",51.51787,-0.201005,4,18,23,True,False
BikePoints_759,"Broadley Terrace, Marylebone",51.524561,-0.165668,11,5,18,True,False
BikePoints_760,"Elgin Avenue, Maida Hill",51.524309,-0.201234,13,5,18,True,False
BikePoints_761,"Humbolt Road, Fulham",51.483217,-0.21186,6,19,26,True,False
BikePoints_762,"Storey's Gate, Westminster",51.500703,-0.129698,0,18,21,True,False
BikePoints_763,"Mile End Park Leisure Centre, Mile End",51.520597,-0.032566,16,26,47,True,False
BikePoints_764,"St. John's Road, Clapham Junction",51.462392,-0.168292,15,16,33,True,False
BikePoints_765,"Ranelagh Gardens, Fulham",51.467601,-0.206827,19,8,29,True,False
BikePoints_766,"Ram Street, Wandsworth",51.457529,-0.192165,8,14,25,True,False
BikePoints_767,"Santos Road, Wandsworth",51.457059,-0.200806,11,18,30,True,False
BikePoints_768,"Clapham Common North Side, Clapham Common",51.461343,-0.159322,31,4,37,True,False
BikePoints_769,"Sandilands Road, Walham Green",51.473611,-0.191803,16,3,21,True,False
BikePoints_770,"Gwendwr Road, West Kensington",51.491026,-0.209121,3,25,30,True,False
BikePoints_771,"Rifle Place, Avondale",51.509224,-0.216016,9,12,21,True,False
BikePoints_772,"Binfield Road, Stockwell",51.472509,-0.122831,4,30,35,True,False
BikePoints_773,"Tallis Street, Temple",51.511891,-0.107349,0,20,24,True,False
BikePoints_774,"Hurlingham Park, Parsons Green",51.470131,-0.20464,6,13,20,True,False
BikePoints_775,"Little Brook Green, Brook Green",51.496664,-0.223868,24,8,33,True,False
BikePoints_776,"Adeline Place, Bloomsbury",51.517632,-0.129985,14,7,22,True,False
BikePoints_779,"Houndsditch, Aldgate",51.514449,-0.077178,8,15,28,True,False
BikePoints_780,"Imperial Wharf Station, Sands End",51.474665,-0.183165,13,9,25,True,False
BikePoints_782,"Halford Road, West Kensington",51.483911,-0.197609,6,16,24,True,False
BikePoints_783,"Monier Road, Hackney Wick",51.540311,-0.02163,14,9,27,True,False
BikePoints_784,"East Village, Queen Elizabeth Olympic Park",51.546326,-0.009935,4,27,34,True,False
BikePoints_785,"Aquatic Centre, Queen Elizabeth Olympic Park",51.541482,-0.010437,1,22,30,True,False
BikePoints_786,"Lee Valley VeloPark, Queen Elizabeth Olympic Park",51.549369,-0.015717,14,28,44,True,False
BikePoints_787,"Timber Lodge, Queen Elizabeth Olympic Park",51.546805,-0.014691,3,32,35,True,False
BikePoints_788,"Copper Box Arena, Queen Elizabeth Olympic Park",51.544909,-0.020542,7,21,31,True,False
BikePoints_789,"Podium, Queen Elizabeth Olympic Park",51.538718,-0.011889,32,4,40,True,False
BikePoints_790,"Stratford Station, Stratford",51.541793,-0.00481,17,8,28,True,False
BikePoints_792,"Blackfriars Road, Southwark",51.505461,-0.10454,20,20,42,True,False
BikePoints_793,"Cromer Street, Bloomsbury",51.528279,-0.119558,20,5,28,True,False
BikePoints_795,"Euston Square Gardens, Euston",51.527068,-0.131861,24,0,30,True,False
BikePoints_796,"Coram Street, Bloomsbury",51.524,-0.126409,23,2,29,True,False
BikePoints_797,"Ossulston Street, Somers Town",51.5293,-0.128279,23,2,30,True,False
BikePoints_798,"Birkenhead Street, King's Cross",51.530199,-0.122299,17,3,27,True,False
BikePoints_799,"Kings Gate House, Westminster",51.497698,-0.137598,5,18,24,True,False
BikePoints_800,"Sopwith Way, Battersea Park",51.481121,-0.149035,18,6,30,True,False
BikePoints_801,"Lavington Street, Bankside",51.505224,-0.098031,10,19,29,True,False
BikePoints_802,"Albert Square, Stockwell",51.47659,-0.118256,20,10,32,True,False
BikePoints_803,"Southwark Street, Bankside",51.505409,-0.098341,5,17,23,True,False
BikePoints_804,"Good's Way, King's Cross",51.534667,-0.125078,14,1,27,True,False
BikePoints_805,"The Metropolitan, Portobello",51.520509,-0.200804,4,14,18,True,False
BikePoints_807,"Bevington Road West, North Kensington",51.5212,-0.208888,5,17,24,True,False
BikePoints_808,"Gauden Road, Clapham",51.464995,-0.130908,10,18,28,True,False
BikePoints_809,"Lincoln's Inn Fields, Holborn",51.516277,-0.118272,0,26,28,True,False
BikePoints_810,"Tate Modern, Bankside",51.506725,-0.098807,3,27,30,True,False
BikePoints_811,"Westferry Circus, Canary Wharf",51.505703,-0.027772,14,19,36,True,False
BikePoints_812,"Here East North, Queen Elizabeth Olympic Park",51.548731,-0.022606,17,11,28,True,False
BikePoints_813,"New Spring Gardens Walk, Vauxhall",51.487807,-0.122759,1,31,33,True,False
BikePoints_814,"Clapham Road, Lingham Street, Stockwell",51.471433,-0.12367,19,9,30,True,False
BikePoints_815,"Lambeth Palace Road, Waterloo",51.500089,-0.116628,1,32,35,True,False
BikePoints_816,"Here East South, Queen Elizabeth Olympic Park",51.546532,-0.020597,8,11,20,True,False
BikePoints_818,"Westminster Pier, Westminster",51.501513,-0.123823,2,21,27,True,False
BikePoints_819,"Belvedere Road 2, South Bank",51.50621,-0.114842,33,3,38,True,False
BikePoints_820,"Victory Place, Walworth",51.492807,-0.091938,9,15,24,True,False
BikePoints_821,"Battersea Power Station, Battersea Park",51.483507,-0.147714,11,14,27,True,False
BikePoints_826,"Allington Street, Victoria",51.496863,-0.142943,4,20,28,True,False
BikePoints_827,"Cranmer Road, Stockwell",51.479601,-0.111471,19,3,24,True,False
BikePoints_828,"Normandy Road, Stockwell",51.473874,-0.11258,26,5,32,True,False
BikePoints_829,"Wynne Road, Stockwell",51.469217,-0.112686,17,5,25,True,False
BikePoints_830,"Sidney Road, Stockwell",51.469202,-0.119022,11,15,27,True,False
BikePoints_831,"St John's Crescent, Brixton",51.466232,-0.113179,21,2,25,True,False
BikePoints_832,"Ferndale Road, Brixton",51.464019,-0.115781,15,14,30,True,False
BikePoints_833,"Saltoun Road, Brixton",51.460232,-0.115375,15,18,42,True,False
BikePoints_834,"Gas Holders, Battersea Park",51.477966,-0.147857,6,16,26,True,False
BikePoints_835,"Farringdon Street, Holborn",51.516785,-0.104947,0,22,25,True,False
BikePoints_836,"York Way, Kings Cross",51.541596,-0.125441,14,7,24,True,False
BikePoints_838,"Fore Street, Guildhall",51.518093,-0.091401,1,20,25,True,False
BikePoints_839,"Sea Containers, South Bank",51.508033,-0.106823,1,28,30,True,False
BikePoints_840,"George Row, Bermondsey",51.498585,-0.068981,18,3,22,True,False
BikePoints_841,"Tower Wharf, Bermondsey",51.500845,-0.074704,16,2,20,True,False
BikePoints_842,"Temple Gardens, Temple",51.510981,-0.108322,5,16,24,True,False
BikePoints_844,"Canada Water Station, Rotherhithe",51.498439,-0.04915,16,19,35,True,False
BikePoints_845,"Bermondsey Station, Bermondsey",51.497995,-0.063471,15,14,30,True,False
BikePoints_846,"Burgess Park Albany Road, Walworth",51.48224,-0.094284,19,11,30,True,False
BikePoints_847,"South Bermondsey Station, Bermondsey",51.488067,-0.057774,8,16,24,True,False
BikePoints_849,"Crimscott Street, Bermondsey",51.495598,-0.078893,13,5,19,True,False
BikePoints_850,"Brandon Street, Walworth",51.489102,-0.091548,5,15,22,True,False
BikePoints_851,"The Blue, Bermondsey",51.492221,-0.062513,20,1,22,True,False
BikePoints_852,"Coomer Place, West Kensington",51.48357,-0.202038,10,15,27,True,False
BikePoints_857,"Strand, Strand",51.512582,-0.115057,2,31,35,True,False
BikePoints_864,"Abbey Orchard Street, Westminster",51.498125,-0.132102,0,21,29,True,False
BikePoints_865,"Leonard Circus , Shoreditch",51.524696,-0.084439,25,11,43,True,False
BikePoints_866,"Limburg Road, Clapham Junction",51.461923,-0.165297,7,13,21,True,False
BikePoints_867,"Pritchard's Road, Bethnal Green",51.532091,-0.061419,7,21,30,True,False
BikePoints_868,"Kennington Lane Rail Bridge, Vauxhall",51.486343,-0.122492,13,16,31,True,False
BikePoints_869,"Albert Embankment, Vauxhall",51.490435,-0.122806,1,22,24,True,False
BikePoints_870,"Lower Marsh, Waterloo",51.500139,-0.113935,15,0,17,True,False
BikePoints_872,"Risinghill Street, Angel",51.533319,-0.111781,6,9,25,True,False
BikePoints_873,"St. Pancras Way, Camden Town",51.537071,-0.13285,6,13,20,True,False
BikePoints_874,"Handyside Street, King's Cross",51.53724,-0.124807,7,16,27,True,False
BikePoints_875,"Victoria Rise, Clapham Common",51.461376,-0.147804,9,14,23,True,False
BikePoints_876,"Old Quebec Street, Marylebone",51.514577,-0.158264,1,12,16,True,False
BikePoints_877,"Spencer Park, Wandsworth Common",51.45787,-0.174691,3,21,25,True,False
BikePoints_878,"Victoria & Albert Museum, South Kensington",51.495898,-0.173009,8,21,30,True,False
BikePoints_881,"Albany Street, The Regent's Park",51.528302,-0.144465,6,19,27,True,False
BikePoints_882,"Maplin Street, Mile End",51.525501,-0.032267,8,30,39,True,False
BikePoints_883,"London Fields, Hackney",51.54119,-0.058826,13,6,21,True,False
BikePoints_884,"Westfield Ariel Way, White City",51.509158,-0.224103,21,19,42,True,False
